2024-07-17T19:19:57.316,FE,20, 0, 0,B1, 1, 1,    1F,mavlink_attitude_quaternion_t,time_boot_ms,33280,q1,0.7675237,q2,0.006028017,q3,0.003549656,q4,-0.6409825,rollspeed,0.001081037,pitchspeed,0.0007641658,yawspeed,-0.0004751517,repr_offset_q,,,sig ,Len,40,crc16,37
2024-07-17T19:19:57.316,FE,1C, 0, 0,B2, 1, 1,    1E,mavlink_attitude_t,time_boot_ms,33307,roll,0.004697733,pitch,0.01316367,yaw,-1.391608,rollspeed,-0.0005755031,pitchspeed,-0.004080559,yawspeed,0.0003280386,,sig ,Len,36,crc16,22697
2024-07-17T19:19:57.316,FE,2A, 0, 0,B3, 1, 1,    41,mavlink_rc_channels_t,time_boot_ms,33309,chan1_raw,1494,chan2_raw,1507,chan3_raw,1387,chan4_raw,1501,chan5_raw,1499,chan6_raw,1065,chan7_raw,1933,chan8_raw,1065,chan9_raw,1933,chan10_raw,1932,chan11_raw,1542,chan12_raw,1542,chan13_raw,1514,chan14_raw,1514,chan15_raw,1514,chan16_raw,1514,chan17_raw,998,chan18_raw,998,chancount,18,rssi,45,,sig ,Len,50,crc16,5274
2024-07-17T19:19:57.316,FE, 2, 0, 0,B4, 1, 1,    2A,mavlink_mission_current_t,seq,0,total,0,mission_state,0,mission_mode,0,,sig ,Len,10,crc16,52925
2024-07-17T19:19:57.316,FE,25, 0, 0,B5, 1, 1,    53,mavlink_attitude_target_t,time_boot_ms,33334,q,,body_roll_rate,-0.03058279,body_pitch_rate,-0.08569139,body_yaw_rate,4.656294E-06,thrust,0.001,type_mask,0,,sig ,Len,45,crc16,36570
2024-07-17T19:19:57.374,FE, 2, 0, 0,B6, 1, 1,    2A,mavlink_mission_current_t,seq,0,total,0,mission_state,0,mission_mode,0,,sig ,Len,10,crc16,63750
2024-07-17T19:19:57.389,FE,1C, 0, 0,B7, 1, 1,    21,mavlink_global_position_int_t,time_boot_ms,33442,lat,295981043,lon,1063014466,alt,282023,relative_alt,105,vx,1,vy,1,vz,-3,hdg,28027,,sig ,Len,36,crc16,28747
2024-07-17T19:19:57.514,FE, 2, 0, 0,B8, 1, 1,    2A,mavlink_mission_current_t,seq,0,total,0,mission_state,0,mission_mode,0,,sig ,Len,10,crc16,32551
2024-07-17T19:19:57.514,FE,1C, 0, 0,B9, 1, 1,    1E,mavlink_attitude_t,time_boot_ms,33546,roll,0.004649347,pitch,0.01332364,yaw,-1.391236,rollspeed,-0.0007908345,pitchspeed,0.003487592,yawspeed,0.001118475,,sig ,Len,36,crc16,31610
2024-07-17T19:19:57.624,FE,20, 0, 0,BA, 1, 1,    1F,mavlink_attitude_quaternion_t,time_boot_ms,33627,q1,0.7676222,q2,0.006026913,q3,0.003636371,q4,-0.6408641,rollspeed,-0.001796226,pitchspeed,0.002034799,yawspeed,-0.002331505,repr_offset_q,,,sig ,Len,40,crc16,10881
2024-07-17T19:19:57.734,FE, 2, 0, 0,BB, 1, 1,    2A,mavlink_mission_current_t,seq,0,total,0,mission_state,0,mission_mode,0,,sig ,Len,10,crc16,55113
2024-07-17T19:19:57.764,FE, 9, 0, 0,BC, 1, 1,     0,mavlink_heartbeat_t,custom_mode,67371008,type,2,autopilot,12,base_mode,29,system_status,3,mavlink_version,3,,sig ,Len,17,crc16,10947
2024-07-17T19:19:57.765,FE,1E, 0, 0,BD, 1, 1,    18,mavlink_gps_raw_int_t,time_usec,33672772,lat,295981049,lon,1063014478,alt,282214,eph,53,epv,81,vel,1,cog,0,fix_type,3,satellites_visible,30,alt_ellipsoid,0,h_acc,0,v_acc,0,vel_acc,0,hdg_acc,0,yaw,0,,sig ,Len,38,crc16,15658
2024-07-17T19:19:57.765,FE, 2, 0, 0,BE, 1, 1,    2A,mavlink_mission_current_t,seq,0,total,0,mission_state,0,mission_mode,0,,sig ,Len,10,crc16,10218
2024-07-17T19:19:57.767,FE,1C, 0, 0,BF, 1, 1,    1E,mavlink_attitude_t,time_boot_ms,33789,roll,0.004521389,pitch,0.01312566,yaw,-1.391455,rollspeed,-0.001057465,pitchspeed,0.0007321597,yawspeed,-0.001621033,,sig ,Len,36,crc16,25014
2024-07-17T19:19:58.264,FE, 6, 0, 0, C,FF,BE,    42,mavlink_request_data_stream_t,req_message_rate,2,target_system,1,target_component,1,req_stream_id,2,start_stop,1,,sig ,Len,14,crc16,32029
2024-07-17T19:19:58.264,FE, 6, 0, 0, D,FF,BE,    42,mavlink_request_data_stream_t,req_message_rate,2,target_system,1,target_component,1,req_stream_id,2,start_stop,1,,sig ,Len,14,crc16,10380
2024-07-17T19:19:58.266,FE, 6, 0, 0, E,FF,BE,    42,mavlink_request_data_stream_t,req_message_rate,2,target_system,1,target_component,1,req_stream_id,6,start_stop,1,,sig ,Len,14,crc16,46430
2024-07-17T19:19:58.266,FE, 6, 0, 0, F,FF,BE,    42,mavlink_request_data_stream_t,req_message_rate,2,target_system,1,target_component,1,req_stream_id,6,start_stop,1,,sig ,Len,14,crc16,57551
2024-07-17T19:19:58.267,FE, 6, 0, 0,10,FF,BE,    42,mavlink_request_data_stream_t,req_message_rate,4,target_system,1,target_component,1,req_stream_id,11,start_stop,1,,sig ,Len,14,crc16,10868
2024-07-17T19:19:58.267,FE, 6, 0, 0,11,FF,BE,    42,mavlink_request_data_stream_t,req_message_rate,4,target_system,1,target_component,1,req_stream_id,11,start_stop,1,,sig ,Len,14,crc16,32741
2024-07-17T19:19:58.268,FE, 6, 0, 0,12,FF,BE,    42,mavlink_request_data_stream_t,req_message_rate,2,target_system,1,target_component,1,req_stream_id,12,start_stop,1,,sig ,Len,14,crc16,21918
2024-07-17T19:19:58.268,FE, 6, 0, 0,13,FF,BE,    42,mavlink_request_data_stream_t,req_message_rate,2,target_system,1,target_component,1,req_stream_id,12,start_stop,1,,sig ,Len,14,crc16,15
2024-07-17T19:19:58.268,FE, 6, 0, 0,14,FF,BE,    42,mavlink_request_data_stream_t,req_message_rate,2,target_system,1,target_component,1,req_stream_id,1,start_stop,1,,sig ,Len,14,crc16,24470
2024-07-17T19:19:58.268,FE, 6, 0, 0,15,FF,BE,    42,mavlink_request_data_stream_t,req_message_rate,2,target_system,1,target_component,1,req_stream_id,1,start_stop,1,,sig ,Len,14,crc16,2567
2024-07-17T19:19:58.271,FE, 6, 0, 0,16,FF,BE,    42,mavlink_request_data_stream_t,req_message_rate,2,target_system,1,target_component,1,req_stream_id,3,start_stop,1,,sig ,Len,14,crc16,16652
2024-07-17T19:19:58.272,FE, 6, 0, 0,17,FF,BE,    42,mavlink_request_data_stream_t,req_message_rate,2,target_system,1,target_component,1,req_stream_id,3,start_stop,1,,sig ,Len,14,crc16,5277
2024-07-17T19:19:58.279,FE, 9, 0, 0,18,FF,BE,     0,mavlink_heartbeat_t,custom_mode,0,type,6,autopilot,8,base_mode,0,system_status,0,mavlink_version,3,,sig ,Len,17,crc16,31644
2024-07-17T19:19:58.279,FE, 9, 0, 0,19,FF,BE,     0,mavlink_heartbeat_t,custom_mode,0,type,6,autopilot,8,base_mode,0,system_status,0,mavlink_version,3,,sig ,Len,17,crc16,1398
2024-07-17T19:19:58.279,FE, 2, 0, 0,C0, 1, 1,    2A,mavlink_mission_current_t,seq,0,total,0,mission_state,0,mission_mode,0,,sig ,Len,10,crc16,45191
2024-07-17T19:19:58.279,FE,14, 0, 0,C1, 1, 1,    4A,mavlink_vfr_hud_t,airspeed,0,groundspeed,0.02151647,alt,282.0457,climb,0.03032677,heading,280,throttle,0,,sig ,Len,28,crc16,46843
2024-07-17T19:19:58.281,FE, 2, 0, 0,C2, 1, 1,    2A,mavlink_mission_current_t,seq,0,total,0,mission_state,0,mission_mode,0,,sig ,Len,10,crc16,34620
2024-07-17T19:19:58.281,FE,20, 0, 0,C3, 1, 1,    1F,mavlink_attitude_quaternion_t,time_boot_ms,33987,q1,0.7675785,q2,0.005945897,q3,0.003584331,q4,-0.6409174,rollspeed,0.0001603699,pitchspeed,0.003219699,yawspeed,-0.001204029,repr_offset_q,,,sig ,Len,40,crc16,56188
2024-07-17T19:19:58.281,FE,1C, 0, 0,C4, 1, 1,    1E,mavlink_attitude_t,time_boot_ms,34028,roll,0.004542322,pitch,0.01318379,yaw,-1.391334,rollspeed,0.002026968,pitchspeed,-0.00106652,yawspeed,-0.0003768331,,sig ,Len,36,crc16,5556
2024-07-17T19:19:58.281,FE,2A, 0, 0,C5, 1, 1,    41,mavlink_rc_channels_t,time_boot_ms,34048,chan1_raw,1494,chan2_raw,1507,chan3_raw,1387,chan4_raw,1501,chan5_raw,1499,chan6_raw,1065,chan7_raw,1933,chan8_raw,1065,chan9_raw,1933,chan10_raw,1932,chan11_raw,1542,chan12_raw,1542,chan13_raw,1514,chan14_raw,1514,chan15_raw,1514,chan16_raw,1514,chan17_raw,998,chan18_raw,998,chancount,18,rssi,45,,sig ,Len,50,crc16,8030
2024-07-17T19:19:58.281,FE, 2, 0, 0,C6, 1, 1,    2A,mavlink_mission_current_t,seq,0,total,0,mission_state,0,mission_mode,0,,sig ,Len,10,crc16,59466
2024-07-17T19:19:58.281,FE,1C, 0, 0,C7, 1, 1,    21,mavlink_global_position_int_t,time_boot_ms,34163,lat,295981045,lon,1063014470,alt,282052,relative_alt,134,vx,1,vy,1,vz,-2,hdg,28029,,sig ,Len,36,crc16,5041
2024-07-17T19:19:58.281,FE, 2, 0, 0,C8, 1, 1,    2A,mavlink_mission_current_t,seq,0,total,0,mission_state,0,mission_mode,0,,sig ,Len,10,crc16,28267
2024-07-17T19:19:58.282,FE,1C, 0, 0,C9, 1, 1,    1E,mavlink_attitude_t,time_boot_ms,34258,roll,0.004402999,pitch,0.01307657,yaw,-1.391041,rollspeed,0.001893398,pitchspeed,0.00128266,yawspeed,-0.002230362,,sig ,Len,36,crc16,42477
2024-07-17T19:19:58.310,FE, 2, 0, 0,CA, 1, 1,    2A,mavlink_mission_current_t,seq,0,total,0,mission_state,0,mission_mode,0,,sig ,Len,10,crc16,22992
2024-07-17T19:19:58.326,FE,20, 0, 0,CB, 1, 1,    1F,mavlink_attitude_quaternion_t,time_boot_ms,34339,q1,0.7677116,q2,0.005852906,q3,0.003560214,q4,-0.6407589,rollspeed,0.0005329024,pitchspeed,0.0003709627,yawspeed,0.0003417011,repr_offset_q,,,sig ,Len,40,crc16,55367
2024-07-17T19:19:58.326,FE, 2, 0, 0,CC, 1, 1,    2A,mavlink_mission_current_t,seq,0,total,0,mission_state,0,mission_mode,0,,sig ,Len,10,crc16,285
2024-07-17T19:19:58.358,FE, 9, 0, 0,9F,33,44,    6D,mavlink_radio_status_t,rxerrors,124,fixed,0,rssi,116,remrssi,111,txbuf,100,noise,49,remnoise,23,,sig ,Len,17,crc16,4565
2024-07-17T19:19:58.451,FE,33, 0, 0,CD, 1, 1,    FD,mavlink_statustext_t,severity,2,text,Preflight Fail: Strong magnetic interference,id,0,chunk_seq,0,,sig ,Len,59,crc16,64309
2024-07-17T19:19:58.452,FE,1C, 0, 0,CE, 1, 1,    1E,mavlink_attitude_t,time_boot_ms,34496,roll,0.004411199,pitch,0.01301397,yaw,-1.390739,rollspeed,-0.001192795,pitchspeed,-0.003319333,yawspeed,-0.0006074067,,sig ,Len,36,crc16,65524
2024-07-17T19:19:58.452,FE, 2, 0, 0,CF, 1, 1,    2A,mavlink_mission_current_t,seq,0,total,0,mission_state,0,mission_mode,0,,sig ,Len,10,crc16,43379
2024-07-17T19:19:58.545,FE, 2, 0, 0,D0, 1, 1,    2A,mavlink_mission_current_t,seq,0,total,0,mission_state,0,mission_mode,0,,sig ,Len,10,crc16,1358
2024-07-17T19:19:58.808,FE,33, 0, 0,D1, 1, 1,    FD,mavlink_statustext_t,severity,2,text,Preflight Fail: Yaw estimate error,id,0,chunk_seq,0,,sig ,Len,59,crc16,47577
2024-07-17T19:19:58.809,FE,20, 0, 0,D2, 1, 1,    8D,mavlink_altitude_t,time_usec,34680509,altitude_monotonic,394.6251,altitude_amsl,282.0673,altitude_local,0.1123443,altitude_relative,0.1497969,altitude_terrain,NaN,bottom_clearance,NaN,,sig ,Len,40,crc16,46512
2024-07-17T19:19:58.809,FE,1C, 0, 0,D3, 1, 1,    1E,mavlink_attitude_t,time_boot_ms,34677,roll,0.004289295,pitch,0.01314039,yaw,-1.390399,rollspeed,-0.003432874,pitchspeed,0.0004586788,yawspeed,-0.0009603784,,sig ,Len,36,crc16,53431
2024-07-17T19:19:58.810,FE,20, 0, 0,D4, 1, 1,    1F,mavlink_attitude_quaternion_t,time_boot_ms,34681,q1,0.7679005,q2,0.005850554,q3,0.003669518,q4,-0.6405321,rollspeed,-0.002062887,pitchspeed,0.0009394917,yawspeed,-0.003122745,repr_offset_q,,,sig ,Len,40,crc16,4848
2024-07-17T19:19:58.810,FE,25, 0, 0,D5, 1, 1,    53,mavlink_attitude_target_t,time_boot_ms,34686,q,,body_roll_rate,-0.02793147,body_pitch_rate,-0.0854475,body_yaw_rate,7.786463E-05,thrust,0.001,type_mask,0,,sig ,Len,45,crc16,30497
2024-07-17T19:19:58.810,FE,24, 0, 0,D6, 1, 1,    93,mavlink_battery_status_t,current_consumed,0,energy_consumed,-1,temperature,32767,voltages,,current_battery,0,id,0,battery_function,1,type,1,battery_remaining,87,time_remaining,0,charge_state,0,voltages_ext,,mode,0,fault_bitmask,0,,sig ,Len,44,crc16,15475
2024-07-17T19:19:58.810,FE,2A, 0, 0,D7, 1, 1,    E6,mavlink_estimator_status_t,time_usec,34704201,vel_ratio,0.02980082,pos_horiz_ratio,0.03315207,pos_vert_ratio,0.03012515,mag_ratio,0.006086187,hagl_ratio,0,tas_ratio,0,pos_horiz_accuracy,0.2039051,pos_vert_accuracy,0.2020234,flags,831,,sig ,Len,50,crc16,31452
2024-07-17T19:19:58.810,FE, 2, 0, 0,D8, 1, 1,    F5,mavlink_extended_sys_state_t,vtol_state,0,landed_state,1,,sig ,Len,10,crc16,62732
2024-07-17T19:19:58.811,FE,1C, 0, 0,D9, 1, 1,    21,mavlink_global_position_int_t,time_boot_ms,34722,lat,295981047,lon,1063014472,alt,282068,relative_alt,151,vx,1,vy,0,vz,-2,hdg,28033,,sig ,Len,36,crc16,4326
2024-07-17T19:19:58.811,FE,1C, 0, 0,DA, 1, 1,    20,mavlink_local_position_ned_t,time_boot_ms,34722,x,0.3143725,y,0.5091359,z,-0.1139973,vx,0.0148407,vy,0.008862511,vz,-0.0213046,,sig ,Len,36,crc16,10612
2024-07-17T19:19:58.811,FE,33, 0, 0,DB, 1, 1,    55,mavlink_position_target_local_ned_t,time_boot_ms,34722,x,NaN,y,NaN,z,NaN,vx,NaN,vy,NaN,vz,NaN,afx,0,afy,0,afz,100,yaw,-1.390379,yaw_rate,0,type_mask,63,coordinate_frame,1,,sig ,Len,59,crc16,1152
2024-07-17T19:19:58.811,FE,2A, 0, 0,DC, 1, 1,    41,mavlink_rc_channels_t,time_boot_ms,34731,chan1_raw,1494,chan2_raw,1507,chan3_raw,1387,chan4_raw,1501,chan5_raw,1499,chan6_raw,1065,chan7_raw,1933,chan8_raw,1065,chan9_raw,1933,chan10_raw,1932,chan11_raw,1542,chan12_raw,1542,chan13_raw,1514,chan14_raw,1514,chan15_raw,1514,chan16_raw,1514,chan17_raw,998,chan18_raw,998,chancount,18,rssi,45,,sig ,Len,50,crc16,7668
2024-07-17T19:19:58.811,FE, 2, 0, 0,DD, 1, 1,    2A,mavlink_mission_current_t,seq,0,total,0,mission_state,0,mission_mode,0,,sig ,Len,10,crc16,11009
2024-07-17T19:19:58.811,FE, E, 0, 0,DE, 1, 1,    1D,mavlink_scaled_pressure_t,time_boot_ms,34697,press_abs,966.71,press_diff,0,temperature,3946,temperature_press_diff,0,,sig ,Len,22,crc16,8167
2024-07-17T19:19:58.811,FE,1F, 0, 0,DF, 1, 1,     1,mavlink_sys_status_t,onboard_control_sensors_present,35717165,onboard_control_sensors_enabled,35717165,onboard_control_sensors_health,841056319,load,267,voltage_battery,16478,current_battery,0,drop_rate_comm,0,errors_comm,0,errors_count1,0,errors_count2,0,errors_count3,0,errors_count4,0,battery_remaining,87,,sig ,Len,39,crc16,49035
2024-07-17T19:19:58.812,FE,14, 0, 0,E0, 1, 1,    4A,mavlink_vfr_hud_t,airspeed,0,groundspeed,0.0169192,alt,282.07,climb,0.02054607,heading,280,throttle,0,,sig ,Len,28,crc16,4485
2024-07-17T19:19:58.813,FE, 9, 0, 0,E2, 1, 1,     0,mavlink_heartbeat_t,custom_mode,67371008,type,2,autopilot,12,base_mode,29,system_status,3,mavlink_version,3,,sig ,Len,17,crc16,24181
2024-07-17T19:19:58.823,FE, 9, 0, 0,1A,FF,BE,     0,mavlink_heartbeat_t,custom_mode,0,type,6,autopilot,8,base_mode,0,system_status,0,mavlink_version,3,,sig ,Len,17,crc16,34376
2024-07-17T19:19:58.823,FE,1C, 0, 0,E3, 1, 1,    1E,mavlink_attitude_t,time_boot_ms,34821,roll,0.004293912,pitch,0.01306745,yaw,-1.390379,rollspeed,-0.003758143,pitchspeed,-0.002569835,yawspeed,0.0004014228,,sig ,Len,36,crc16,32130
2024-07-17T19:19:58.823,FE,20, 0, 0,E4, 1, 1,    1F,mavlink_attitude_quaternion_t,time_boot_ms,34821,q1,0.7679054,q2,0.005833694,q3,0.003642252,q4,-0.6405265,rollspeed,-0.003758143,pitchspeed,-0.002569835,yawspeed,0.0004014228,repr_offset_q,,,sig ,Len,40,crc16,62524
2024-07-17T19:19:58.824,FE, 2, 0, 0,E5, 1, 1,    2A,mavlink_mission_current_t,seq,0,total,0,mission_state,0,mission_mode,0,,sig ,Len,10,crc16,9127
2024-07-17T19:19:58.885,FE, 9, 0, 0,A0,33,44,    6D,mavlink_radio_status_t,rxerrors,124,fixed,0,rssi,118,remrssi,113,txbuf,100,noise,54,remnoise,20,,sig ,Len,17,crc16,34458
2024-07-17T19:19:58.900,FE, 2, 0, 0,E6, 1, 1,    2A,mavlink_mission_current_t,seq,0,total,0,mission_state,0,mission_mode,0,,sig ,Len,10,crc16,35785
2024-07-17T19:19:58.900,FE,1C, 0, 0,E7, 1, 1,    1E,mavlink_attitude_t,time_boot_ms,34983,roll,0.004322247,pitch,0.01303971,yaw,-1.390406,rollspeed,0.001158798,pitchspeed,0.002421266,yawspeed,-0.000701407,,sig ,Len,36,crc16,38273
2024-07-17T19:19:58.916,FE,34, 0, 0,E8, 1, 1,    F2,mavlink_home_position_t,latitude,295981039,longitude,1063014456,altitude,281917,x,0.2268647,y,0.3568434,z,0.03745265,q,,approach_x,0,approach_y,0,approach_z,0,time_usec,0,,sig ,Len,60,crc16,4094
2024-07-17T19:19:59.010,FE,2A, 0, 0,E9, 1, 1,    41,mavlink_rc_channels_t,time_boot_ms,34991,chan1_raw,1495,chan2_raw,1507,chan3_raw,1386,chan4_raw,1501,chan5_raw,1499,chan6_raw,1065,chan7_raw,1933,chan8_raw,1065,chan9_raw,1933,chan10_raw,1932,chan11_raw,1542,chan12_raw,1542,chan13_raw,1514,chan14_raw,1514,chan15_raw,1514,chan16_raw,1514,chan17_raw,998,chan18_raw,998,chancount,18,rssi,45,,sig ,Len,50,crc16,1331
2024-07-17T19:19:59.024,FE,20, 0, 0,EA, 1, 1,    1F,mavlink_attitude_quaternion_t,time_boot_ms,35064,q1,0.7678823,q2,0.005885608,q3,0.003607233,q4,-0.6405539,rollspeed,0.002307812,pitchspeed,-0.001410182,yawspeed,-0.0007571974,repr_offset_q,,,sig ,Len,40,crc16,33228
2024-07-17T19:19:59.024,FE, 2, 0, 0,EB, 1, 1,    2A,mavlink_mission_current_t,seq,0,total,0,mission_state,0,mission_mode,0,,sig ,Len,10,crc16,42374
2024-07-17T19:19:59.025,FE, 9, 0, 0,1B,FF,BE,     0,mavlink_heartbeat_t,custom_mode,0,type,6,autopilot,8,base_mode,0,system_status,0,mavlink_version,3,,sig ,Len,17,crc16,63650
2024-07-17T19:19:59.102,FE, 9, 0, 0,A1,33,44,    6D,mavlink_radio_status_t,rxerrors,124,fixed,0,rssi,119,remrssi,113,txbuf,100,noise,63,remnoise,20,,sig ,Len,17,crc16,24645
2024-07-17T19:19:59.149,FE,1C, 0, 0,EC, 1, 1,    21,mavlink_global_position_int_t,time_boot_ms,35118,lat,295981048,lon,1063014474,alt,282081,relative_alt,163,vx,1,vy,0,vz,-1,hdg,28034,,sig ,Len,36,crc16,43494
2024-07-17T19:19:59.149,FE,14, 0, 0,ED, 1, 1,    4A,mavlink_vfr_hud_t,airspeed,0,groundspeed,0.01640991,alt,282.0815,climb,0.01698833,heading,280,throttle,0,,sig ,Len,28,crc16,65501
2024-07-17T19:19:59.150,FE,1C, 0, 0,EE, 1, 1,    1E,mavlink_attitude_t,time_boot_ms,35145,roll,0.004357741,pitch,0.01295159,yaw,-1.390286,rollspeed,0.001156839,pitchspeed,-0.001525785,yawspeed,-0.001345625,,sig ,Len,36,crc16,14448
2024-07-17T19:19:59.150,FE, 2, 0, 0,EF, 1, 1,    2A,mavlink_mission_current_t,seq,0,total,0,mission_state,0,mission_mode,0,,sig ,Len,10,crc16,51952
2024-07-17T19:19:59.229,FE, 2, 0, 0,F0, 1, 1,    2A,mavlink_mission_current_t,seq,0,total,0,mission_state,0,mission_mode,0,,sig ,Len,10,crc16,26317
2024-07-17T19:19:59.259,FE,1C, 0, 0,F1, 1, 1,    1E,mavlink_attitude_t,time_boot_ms,35303,roll,0.00425221,pitch,0.01280771,yaw,-1.39007,rollspeed,-0.00414813,pitchspeed,-0.002129412,yawspeed,-0.001852719,,sig ,Len,36,crc16,61254
2024-07-17T19:19:59.259,FE,20, 0, 0,F2, 1, 1,    1F,mavlink_attitude_quaternion_t,time_boot_ms,35303,q1,0.7680052,q2,0.005733949,q3,0.003556761,q4,-0.6404081,rollspeed,-0.00414813,pitchspeed,-0.002129412,yawspeed,-0.001852719,repr_offset_q,,,sig ,Len,40,crc16,2891
2024-07-17T19:19:59.352,FE, 2, 0, 0,F3, 1, 1,    2A,mavlink_mission_current_t,seq,0,total,0,mission_state,0,mission_mode,0,,sig ,Len,10,crc16,52899
2024-07-17T19:19:59.492,FE,1C, 0, 0,F4, 1, 1,    1E,mavlink_attitude_t,time_boot_ms,35456,roll,0.004348483,pitch,0.01280559,yaw,-1.38999,rollspeed,0.0006953216,pitchspeed,0.003591751,yawspeed,-0.001146186,,sig ,Len,36,crc16,35067
2024-07-17T19:19:59.493,FE,2A, 0, 0,F5, 1, 1,    41,mavlink_rc_channels_t,time_boot_ms,35479,chan1_raw,1494,chan2_raw,1507,chan3_raw,1386,chan4_raw,1501,chan5_raw,1499,chan6_raw,1065,chan7_raw,1933,chan8_raw,1065,chan9_raw,1933,chan10_raw,1932,chan11_raw,1542,chan12_raw,1542,chan13_raw,1514,chan14_raw,1514,chan15_raw,1514,chan16_raw,1514,chan17_raw,998,chan18_raw,998,chancount,18,rssi,45,,sig ,Len,50,crc16,31752
2024-07-17T19:19:59.493,FE, 2, 0, 0,F6, 1, 1,    2A,mavlink_mission_current_t,seq,0,total,0,mission_state,0,mission_mode,0,,sig ,Len,10,crc16,15872
2024-07-17T19:19:59.493,FE,20, 0, 0,F7, 1, 1,    1F,mavlink_attitude_quaternion_t,time_boot_ms,35546,q1,0.7680446,q2,0.00576119,q3,0.00351367,q4,-0.6403608,rollspeed,-0.000293756,pitchspeed,-0.004594565,yawspeed,-0.00154808,repr_offset_q,,,sig ,Len,40,crc16,60739
2024-07-17T19:19:59.586,FE, 2, 0, 0,F8, 1, 1,    2A,mavlink_mission_current_t,seq,0,total,0,mission_state,0,mission_mode,0,,sig ,Len,10,crc16,47137
2024-07-17T19:19:59.602,FE,1C, 0, 0,F9, 1, 1,    21,mavlink_global_position_int_t,time_boot_ms,35605,lat,295981049,lon,1063014476,alt,282098,relative_alt,181,vx,1,vy,0,vz,-1,hdg,28037,,sig ,Len,36,crc16,53252
2024-07-17T19:19:59.602,FE,1C, 0, 0,FA, 1, 1,    1E,mavlink_attitude_t,time_boot_ms,35618,roll,0.004310502,pitch,0.01273073,yaw,-1.389789,rollspeed,-0.002200365,pitchspeed,0.002932565,yawspeed,-0.002699242,,sig ,Len,36,crc16,17250
2024-07-17T19:19:59.725,FE, 2, 0, 0,FB, 1, 1,    2A,mavlink_mission_current_t,seq,0,total,0,mission_state,0,mission_mode,0,,sig ,Len,10,crc16,4175
2024-07-17T19:19:59.771,FE,33, 0, 0,FC, 1, 1,    55,mavlink_position_target_local_ned_t,time_boot_ms,35722,x,NaN,y,NaN,z,NaN,vx,NaN,vy,NaN,vz,NaN,afx,0,afy,0,afz,100,yaw,-1.389637,yaw_rate,0,type_mask,63,coordinate_frame,1,,sig ,Len,59,crc16,15165
2024-07-17T19:19:59.771,FE,25, 0, 0,FD, 1, 1,    53,mavlink_attitude_target_t,time_boot_ms,35731,q,,body_roll_rate,-0.02766469,body_pitch_rate,-0.08273786,body_yaw_rate,8.133666E-05,thrust,0.001,type_mask,0,,sig ,Len,45,crc16,65331
2024-07-17T19:19:59.771,FE,14, 0, 0,FE, 1, 1,    4A,mavlink_vfr_hud_t,airspeed,0,groundspeed,0.01382326,alt,282.1027,climb,0.01266422,heading,280,throttle,0,,sig ,Len,28,crc16,45592
2024-07-17T19:19:59.772,FE, 9, 0, 0,FF, 1, 1,     0,mavlink_heartbeat_t,custom_mode,67371008,type,2,autopilot,12,base_mode,29,system_status,3,mavlink_version,3,,sig ,Len,17,crc16,60050
2024-07-17T19:19:59.774,FE,33, 0, 0,1C,FF,BE,    FD,mavlink_statustext_t,severity,6,text,Mission Planner 1.3.81,id,0,chunk_seq,0,,sig ,Len,59,crc16,35117
2024-07-17T19:19:59.775,FD,17, 0, 0,1D,FF,BE,    FD,mavlink_statustext_t,severity,6,text,Mission Planner 1.3.81,id,0,chunk_seq,0,,sig ,Len,35,crc16,16218
2024-07-17T19:19:59.775,FD,17, 1, 0,1E,FF,BE,    FD,mavlink_statustext_t,severity,6,text,Mission Planner 1.3.81,id,0,chunk_seq,0,,sig AzS04ZJjG8VHA4Da2g==,Len,48,crc16,10541
2024-07-17T19:19:59.776,FE, 9, 0, 0,1F,FF,BE,     0,mavlink_heartbeat_t,custom_mode,0,type,6,autopilot,8,base_mode,0,system_status,0,mavlink_version,3,,sig ,Len,17,crc16,2843
2024-07-17T19:19:59.776,FE,1C, 0, 0, 0, 1, 1,    1E,mavlink_attitude_t,time_boot_ms,35780,roll,0.004240194,pitch,0.0126783,yaw,-1.389549,rollspeed,-0.001098467,pitchspeed,-0.003757745,yawspeed,0.001618464,,sig ,Len,36,crc16,36056
2024-07-17T19:19:59.776,FE,20, 0, 0, 1, 1, 1,    1F,mavlink_attitude_quaternion_t,time_boot_ms,35780,q1,0.7681724,q2,0.005686985,q3,0.003512395,q4,-0.6402083,rollspeed,-0.001098467,pitchspeed,-0.003757745,yawspeed,0.001618464,repr_offset_q,,,sig ,Len,40,crc16,58863
2024-07-17T19:19:59.776,FE, 2, 0, 0, 2, 1, 1,    2A,mavlink_mission_current_t,seq,0,total,0,mission_state,0,mission_mode,0,,sig ,Len,10,crc16,50727
2024-07-17T19:19:59.927,FE, 2, 0, 0, 3, 1, 1,    2A,mavlink_mission_current_t,seq,0,total,0,mission_state,0,mission_mode,0,,sig ,Len,10,crc16,23026
2024-07-17T19:19:59.957,FE,1C, 0, 0, 4, 1, 1,    1E,mavlink_attitude_t,time_boot_ms,35934,roll,0.004289659,pitch,0.01263289,yaw,-1.38953,rollspeed,0.002402924,pitchspeed,-0.001381284,yawspeed,-0.002384186,,sig ,Len,36,crc16,8053
2024-07-17T19:19:59.957,FE,2A, 0, 0, 5, 1, 1,    41,mavlink_rc_channels_t,time_boot_ms,35957,chan1_raw,1494,chan2_raw,1507,chan3_raw,1386,chan4_raw,1501,chan5_raw,1499,chan6_raw,1065,chan7_raw,1933,chan8_raw,1065,chan9_raw,1933,chan10_raw,1932,chan11_raw,1542,chan12_raw,1542,chan13_raw,1514,chan14_raw,1514,chan15_raw,1514,chan16_raw,1514,chan17_raw,998,chan18_raw,998,chancount,18,rssi,45,,sig ,Len,50,crc16,49545
2024-07-17T19:19:59.957,FE,20, 0, 0, 6, 1, 1,    1F,mavlink_attitude_quaternion_t,time_boot_ms,36024,q1,0.7681758,q2,0.005646096,q3,0.003467046,q4,-0.6402047,rollspeed,-0.0009798852,pitchspeed,-0.0001932919,yawspeed,-0.001850393,repr_offset_q,,,sig ,Len,40,crc16,38330
2024-07-17T19:19:59.959,FE, 2, 0, 0, 7, 1, 1,    2A,mavlink_mission_current_t,seq,0,total,0,mission_state,0,mission_mode,0,,sig ,Len,10,crc16,13956
2024-07-17T19:19:59.973,FE, 9, 0, 0,A2,33,44,    6D,mavlink_radio_status_t,rxerrors,124,fixed,0,rssi,108,remrssi,105,txbuf,100,noise,52,remnoise,21,,sig ,Len,17,crc16,21232
2024-07-17T19:20:00.021,FE, 9, 0, 0,20,FF,BE,     0,mavlink_heartbeat_t,custom_mode,0,type,6,autopilot,8,base_mode,0,system_status,0,mavlink_version,3,,sig ,Len,17,crc16,59287
2024-07-17T19:20:00.052,FE,1C, 0, 0, 8, 1, 1,    21,mavlink_global_position_int_t,time_boot_ms,36082,lat,295981050,lon,1063014478,alt,282113,relative_alt,195,vx,1,vy,0,vz,0,hdg,28038,,sig ,Len,36,crc16,10737
2024-07-17T19:20:00.067,FE,1C, 0, 0, 9, 1, 1,    1E,mavlink_attitude_t,time_boot_ms,36096,roll,0.004249665,pitch,0.01252315,yaw,-1.38951,rollspeed,0.0005846188,pitchspeed,0.000782287,yawspeed,-0.001944867,,sig ,Len,36,crc16,18006
2024-07-17T19:20:00.067,FD, 1, 0, 0, A, 1, 1,    2A,mavlink_mission_current_t,seq,0,total,0,mission_state,0,mission_mode,0,,sig ,Len,13,crc16,60995
2024-07-17T19:20:00.067,FD,2B, 0, 0, B, 1, 1,    18,mavlink_gps_raw_int_t,time_usec,36044440,lat,295981053,lon,1063014485,alt,282271,eph,53,epv,81,vel,1,cog,0,fix_type,3,satellites_visible,30,alt_ellipsoid,255516,h_acc,572,v_acc,890,vel_acc,110,hdg_acc,0,yaw,0,,sig ,Len,55,crc16,59208
2024-07-17T19:20:00.161,FD, 1, 0, 0, C, 1, 1,    2A,mavlink_mission_current_t,seq,0,total,0,mission_state,0,mission_mode,0,,sig ,Len,13,crc16,62450
2024-07-17T19:20:00.161,FD,1C, 0, 0, D, 1, 1,    1E,mavlink_attitude_t,time_boot_ms,36253,roll,0.004283171,pitch,0.01261334,yaw,-1.389384,rollspeed,-0.0003364184,pitchspeed,0.003490891,yawspeed,-0.0005730605,,sig ,Len,40,crc16,25984
2024-07-17T19:20:00.176,FD,20, 0, 0, E, 1, 1,    1F,mavlink_attitude_quaternion_t,time_boot_ms,36262,q1,0.7682384,q2,0.005684666,q3,0.003486197,q4,-0.6401292,rollspeed,-0.0006115516,pitchspeed,0.003257577,yawspeed,0.002311142,repr_offset_q,,,sig ,Len,44,crc16,1466
2024-07-17T19:20:00.176,FD,19, 0, 0, F, 1, 1,  3268,mavlink_open_drone_id_system_t,operator_latitude,295981039,operator_longitude,1063014456,area_ceiling,-1000,area_floor,-1000,operator_altitude_geo,281.9175,timestamp,174914397,area_count,1,area_radius,0,target_system,0,target_component,0,id_or_mac,,operator_location_type,0,classification_type,0,category_eu,0,class_eu,0,,sig ,Len,37,crc16,23688
2024-07-17T19:20:00.176,FE, 9, 0, 0,A3,33,44,    6D,mavlink_radio_status_t,rxerrors,124,fixed,0,rssi,110,remrssi,105,txbuf,100,noise,56,remnoise,21,,sig ,Len,17,crc16,33263
2024-07-17T19:20:00.272,FD,12, 0, 0,10, 1, 1,    4A,mavlink_vfr_hud_t,airspeed,0,groundspeed,0.01337616,alt,282.1212,climb,0.008778935,heading,280,throttle,0,,sig ,Len,30,crc16,26899
2024-07-17T19:20:00.272,FD, 1, 0, 0,11, 1, 1,    2A,mavlink_mission_current_t,seq,0,total,0,mission_state,0,mission_mode,0,,sig ,Len,13,crc16,4695
2024-07-17T19:20:00.384,FD,1C, 0, 0,12, 1, 1,    1E,mavlink_attitude_t,time_boot_ms,36420,roll,0.004266562,pitch,0.01262606,yaw,-1.389259,rollspeed,0.001558577,pitchspeed,-0.0005005366,yawspeed,-0.003716034,,sig ,Len,40,crc16,49618
2024-07-17T19:20:00.416,FD,2A, 0, 0,13, 1, 1,    41,mavlink_rc_channels_t,time_boot_ms,36422,chan1_raw,1494,chan2_raw,1507,chan3_raw,1386,chan4_raw,1501,chan5_raw,1499,chan6_raw,1065,chan7_raw,1933,chan8_raw,1065,chan9_raw,1933,chan10_raw,1932,chan11_raw,1542,chan12_raw,1542,chan13_raw,1514,chan14_raw,1514,chan15_raw,1514,chan16_raw,1514,chan17_raw,998,chan18_raw,998,chancount,18,rssi,45,,sig ,Len,54,crc16,7964
2024-07-17T19:20:00.416,FD, 1, 0, 0,14, 1, 1,    2A,mavlink_mission_current_t,seq,0,total,0,mission_state,0,mission_mode,0,,sig ,Len,13,crc16,34102
2024-07-17T19:20:00.416,FD,20, 0, 0,15, 1, 1,    1F,mavlink_attitude_quaternion_t,time_boot_ms,36497,q1,0.76825,q2,0.005716769,q3,0.003523107,q4,-0.6401148,rollspeed,0.001115365,pitchspeed,0.00143039,yawspeed,-0.002797768,repr_offset_q,,,sig ,Len,44,crc16,57143
2024-07-17T19:20:00.512,FD,1C, 0, 0,16, 1, 1,    21,mavlink_global_position_int_t,time_boot_ms,36560,lat,295981051,lon,1063014479,alt,282128,relative_alt,211,vx,1,vy,0,vz,0,hdg,28040,,sig ,Len,40,crc16,31597
2024-07-17T19:20:00.512,FD, 1, 0, 0,17, 1, 1,    2A,mavlink_mission_current_t,seq,0,total,0,mission_state,0,mission_mode,0,,sig ,Len,13,crc16,4070
2024-07-17T19:20:00.527,FD,1C, 0, 0,18, 1, 1,    1E,mavlink_attitude_t,time_boot_ms,36578,roll,0.004290606,pitch,0.01271369,yaw,-1.389252,rollspeed,0.001123621,pitchspeed,0.0004600843,yawspeed,0.001295214,,sig ,Len,40,crc16,35874
2024-07-17T19:20:00.608,FD, 1, 0, 0,19, 1, 1,    2A,mavlink_mission_current_t,seq,0,total,0,mission_state,0,mission_mode,0,,sig ,Len,13,crc16,16363
2024-07-17T19:20:00.767,FD,1C, 0, 0,1A, 1, 1,    1E,mavlink_attitude_t,time_boot_ms,36740,roll,0.004242564,pitch,0.01254494,yaw,-1.389129,rollspeed,0.0003353315,pitchspeed,0.0005538232,yawspeed,-0.0003243748,,sig ,Len,40,crc16,26035
2024-07-17T19:20:00.767,FD,20, 0, 0,1B, 1, 1,    1F,mavlink_attitude_quaternion_t,time_boot_ms,36740,q1,0.7683071,q2,0.005644482,q3,0.0034616,q4,-0.6400471,rollspeed,0.0003353315,pitchspeed,0.0005538232,yawspeed,-0.0003243748,repr_offset_q,,,sig ,Len,44,crc16,28341
2024-07-17T19:20:00.767,FD, 9, 0, 0,1C, 1, 1,     0,mavlink_heartbeat_t,custom_mode,67371008,type,2,autopilot,12,base_mode,29,system_status,3,mavlink_version,3,,sig ,Len,21,crc16,55579
2024-07-17T19:20:00.769,FD,20, 0, 0,21,FF,BE,    4C,mavlink_command_long_t,param1,148,param2,0,param3,0,param4,0,param5,0,param6,0,param7,0,command,512,target_system,1,target_component,1,confirmation,0,,sig ,Len,44,crc16,28884
2024-07-17T19:20:00.770,FD,20, 0, 0,22,FF,BE,    4C,mavlink_command_long_t,param1,0,param2,0,param3,0,param4,0,param5,0,param6,0,param7,0,command,520,target_system,1,target_component,1,confirmation,0,,sig ,Len,44,crc16,55284
2024-07-17T19:20:00.770,FD, 2, 0, 0,23,FF,BE,    B7,mavlink_autopilot_version_request_t,target_system,1,target_component,1,,sig ,Len,14,crc16,116
2024-07-17T19:20:00.782,FD, 1, 0, 0,1D, 1, 1,    2A,mavlink_mission_current_t,seq,0,total,0,mission_state,0,mission_mode,0,,sig ,Len,13,crc16,10549
2024-07-17T19:20:00.895,FD, 1, 0, 0,1E, 1, 1,    2A,mavlink_mission_current_t,seq,0,total,0,mission_state,0,mission_mode,0,,sig ,Len,13,crc16,41957
2024-07-17T19:20:00.895,FD,1C, 0, 0,1F, 1, 1,    1E,mavlink_attitude_t,time_boot_ms,36902,roll,0.004308065,pitch,0.01261431,yaw,-1.388926,rollspeed,-0.0009742255,pitchspeed,0.0020873,yawspeed,-0.0002301,,sig ,Len,40,crc16,26501
2024-07-17T19:20:00.895,FD,2A, 0, 0,20, 1, 1,    41,mavlink_rc_channels_t,time_boot_ms,36922,chan1_raw,1494,chan2_raw,1507,chan3_raw,1386,chan4_raw,1501,chan5_raw,1499,chan6_raw,1065,chan7_raw,1933,chan8_raw,1065,chan9_raw,1933,chan10_raw,1932,chan11_raw,1542,chan12_raw,1542,chan13_raw,1514,chan14_raw,1514,chan15_raw,1514,chan16_raw,1514,chan17_raw,998,chan18_raw,998,chancount,18,rssi,45,,sig ,Len,54,crc16,44429
2024-07-17T19:20:00.895,FD,24, 0, 0,21, 1, 1,    53,mavlink_attitude_target_t,time_boot_ms,36929,q,,body_roll_rate,-0.02804734,body_pitch_rate,-0.08245847,body_yaw_rate,4.088188E-05,thrust,0.001,type_mask,0,,sig ,Len,48,crc16,22432
2024-07-17T19:20:00.896,FD,12, 0, 0,22, 1, 1,    4A,mavlink_vfr_hud_t,airspeed,0,groundspeed,0.01243607,alt,282.1375,climb,0.006500892,heading,280,throttle,0,,sig ,Len,30,crc16,45869
2024-07-17T19:20:00.990,FD,20, 0, 0,23, 1, 1,    1F,mavlink_attitude_quaternion_t,time_boot_ms,36979,q1,0.7684031,q2,0.005697077,q3,0.003527605,q4,-0.6399311,rollspeed,-0.001617417,pitchspeed,0.004187273,yawspeed,-0.002015082,repr_offset_q,,,sig ,Len,44,crc16,12221
2024-07-17T19:20:00.990,FD, 1, 0, 0,24, 1, 1,    2A,mavlink_mission_current_t,seq,0,total,0,mission_state,0,mission_mode,0,,sig ,Len,13,crc16,26814
2024-07-17T19:20:01.006,FD, 9, 0, 0,24,FF,BE,     0,mavlink_heartbeat_t,custom_mode,0,type,6,autopilot,8,base_mode,0,system_status,0,mavlink_version,3,,sig ,Len,21,crc16,18495
2024-07-17T19:20:01.150,FD,20, 0, 0,25, 1, 1,    8D,mavlink_altitude_t,time_usec,37009615,altitude_monotonic,394.6806,altitude_amsl,282.1389,altitude_local,0.1838903,altitude_relative,0.221343,altitude_terrain,NaN,bottom_clearance,NaN,,sig ,Len,44,crc16,37713
2024-07-17T19:20:01.150,FD, 2, 0, 0,26, 1, 1,    F5,mavlink_extended_sys_state_t,vtol_state,0,landed_state,1,,sig ,Len,14,crc16,47664
2024-07-17T19:20:01.150,FD,1C, 0, 0,27, 1, 1,    20,mavlink_local_position_ned_t,time_boot_ms,37011,x,0.3711962,y,0.5881735,z,-0.1839977,vx,0.01215648,vy,-0.003674952,vz,-0.005379686,,sig ,Len,40,crc16,59790
2024-07-17T19:20:01.150,FD,3B, 0, 0,28, 1, 1,  3265,mavlink_open_drone_id_location_t,latitude,295981055,longitude,1063014487,altitude_barometric,394.6806,altitude_geodetic,282.273,height,0.2214355,timestamp,1198.625,direction,26600,speed_horizontal,1,speed_vertical,-3,target_system,0,target_component,0,id_or_mac,,status,1,height_reference,0,horizontal_accuracy,12,vertical_accuracy,6,barometer_accuracy,1,speed_accuracy,4,timestamp_accuracy,10,,sig ,Len,71,crc16,32791
2024-07-17T19:20:01.150,FD, E, 0, 0,29, 1, 1,    1D,mavlink_scaled_pressure_t,time_boot_ms,36967,press_abs,966.71,press_diff,0,temperature,3950,temperature_press_diff,0,,sig ,Len,26,crc16,33584
2024-07-17T19:20:01.150,FD,28, 0, 0,2A, 1, 1,     1,mavlink_sys_status_t,onboard_control_sensors_present,35717165,onboard_control_sensors_enabled,35717165,onboard_control_sensors_health,841056319,load,266,voltage_battery,16473,current_battery,0,drop_rate_comm,0,errors_comm,0,errors_count1,0,errors_count2,0,errors_count3,0,errors_count4,0,battery_remaining,87,,sig ,Len,52,crc16,38551
2024-07-17T19:20:01.182,FD, 9, 0, 0,A4,33,44,    6D,mavlink_radio_status_t,rxerrors,125,fixed,0,rssi,103,remrssi,103,txbuf,100,noise,69,remnoise,24,,sig ,Len,21,crc16,61490
2024-07-17T19:20:01.326,FD, 2, 0, 0,25,FF,BE,    B7,mavlink_autopilot_version_request_t,target_system,1,target_component,1,,sig ,Len,14,crc16,42091
2024-07-17T19:20:01.358,FD,33, 0, 0,37, 1, 1,    55,mavlink_position_target_local_ned_t,time_boot_ms,37326,x,NaN,y,NaN,z,NaN,vx,NaN,vy,NaN,vz,NaN,afx,0,afy,0,afz,100,yaw,-1.388667,yaw_rate,0,type_mask,63,coordinate_frame,1,,sig ,Len,63,crc16,20211
2024-07-17T19:20:01.358,FD, 1, 0, 0,38, 1, 1,    2A,mavlink_mission_current_t,seq,0,total,0,mission_state,0,mission_mode,0,,sig ,Len,13,crc16,2212
2024-07-17T19:20:01.358,FD,1C, 0, 0,39, 1, 1,    1E,mavlink_attitude_t,time_boot_ms,37375,roll,0.004300726,pitch,0.01276138,yaw,-1.388681,rollspeed,0.002573071,pitchspeed,0.001832822,yawspeed,-0.002758401,,sig ,Len,40,crc16,47654
2024-07-17T19:20:01.358,FD,2A, 0, 0,3A, 1, 1,    41,mavlink_rc_channels_t,time_boot_ms,37386,chan1_raw,1494,chan2_raw,1507,chan3_raw,1386,chan4_raw,1501,chan5_raw,1499,chan6_raw,1065,chan7_raw,1933,chan8_raw,1065,chan9_raw,1933,chan10_raw,1932,chan11_raw,1542,chan12_raw,1542,chan13_raw,1514,chan14_raw,1514,chan15_raw,1514,chan16_raw,1514,chan17_raw,998,chan18_raw,998,chancount,18,rssi,45,,sig ,Len,54,crc16,30901
2024-07-17T19:20:01.358,FD, 1, 0, 0,3B, 1, 1,    2A,mavlink_mission_current_t,seq,0,total,0,mission_state,0,mission_mode,0,,sig ,Len,13,crc16,33396
2024-07-17T19:20:01.469,FD,20, 0, 0,3C, 1, 1,    1F,mavlink_attitude_quaternion_t,time_boot_ms,37466,q1,0.7684479,q2,0.005750909,q3,0.003524842,q4,-0.6398768,rollspeed,-0.002322631,pitchspeed,0.001530611,yawspeed,0.0006588164,repr_offset_q,,,sig ,Len,44,crc16,27692
2024-07-17T19:20:01.469,FD,1C, 0, 0,3D, 1, 1,    21,mavlink_global_position_int_t,time_boot_ms,37524,lat,295981053,lon,1063014481,alt,282147,relative_alt,229,vx,1,vy,0,vz,0,hdg,28043,,sig ,Len,40,crc16,17262
2024-07-17T19:20:01.469,FD,1C, 0, 0,3E, 1, 1,    1E,mavlink_attitude_t,time_boot_ms,37533,roll,0.004400308,pitch,0.01282571,yaw,-1.388643,rollspeed,0.000662848,pitchspeed,-0.0003588856,yawspeed,0.0003221154,,sig ,Len,40,crc16,56825
2024-07-17T19:20:01.469,FD,12, 0, 0,3F, 1, 1,    4A,mavlink_vfr_hud_t,airspeed,0,groundspeed,0.01425459,alt,282.1475,climb,0.001590746,heading,280,throttle,0,,sig ,Len,30,crc16,2315
2024-07-17T19:20:01.471,FD, 1, 0, 0,40, 1, 1,    2A,mavlink_mission_current_t,seq,0,total,0,mission_state,0,mission_mode,0,,sig ,Len,13,crc16,44385
2024-07-17T19:20:01.690,FD, 1, 0, 0,41, 1, 1,    2A,mavlink_mission_current_t,seq,0,total,0,mission_state,0,mission_mode,0,,sig ,Len,13,crc16,11486
2024-07-17T19:20:01.690,FD,1C, 0, 0,42, 1, 1,    1E,mavlink_attitude_t,time_boot_ms,37700,roll,0.00438795,pitch,0.01255599,yaw,-1.388637,rollspeed,0.001052315,pitchspeed,-0.001485273,yawspeed,-0.00199344,,sig ,Len,40,crc16,37973
2024-07-17T19:20:01.690,FD,20, 0, 0,43, 1, 1,    1F,mavlink_attitude_quaternion_t,time_boot_ms,37700,q1,0.7684642,q2,0.005703025,q3,0.003420719,q4,-0.6398583,rollspeed,0.001052315,pitchspeed,-0.001485273,yawspeed,-0.00199344,repr_offset_q,,,sig ,Len,44,crc16,9386
2024-07-17T19:20:01.690,FD, 9, 0, 0,44, 1, 1,     0,mavlink_heartbeat_t,custom_mode,67371008,type,2,autopilot,12,base_mode,29,system_status,3,mavlink_version,3,,sig ,Len,21,crc16,48725
2024-07-17T19:20:01.690,FD, 1, 0, 0,45, 1, 1,    2A,mavlink_mission_current_t,seq,0,total,0,mission_state,0,mission_mode,0,,sig ,Len,13,crc16,14848
2024-07-17T19:20:01.817,FD,46, 0, 0,46, 1, 1,   154,mavlink_utm_global_position_t,time,1721215199511259,lat,295981054,lon,1063014480,alt,255562,relative_alt,0,next_lat,0,next_lon,0,next_alt,0,vx,1,vy,-1,vz,-1,h_acc,738,v_acc,1152,vel_acc,13,update_rate,0,uas_id,,flight_state,1,flags,111,,sig ,Len,82,crc16,61069
2024-07-17T19:20:01.817,FD,1C, 0, 0,47, 1, 1,    1E,mavlink_attitude_t,time_boot_ms,37862,roll,0.004459835,pitch,0.01240066,yaw,-1.388672,rollspeed,-0.000161013,pitchspeed,0.0001816784,yawspeed,-0.001008372,,sig ,Len,40,crc16,27224
2024-07-17T19:20:01.817,FD, 1, 0, 0,48, 1, 1,    2A,mavlink_mission_current_t,seq,0,total,0,mission_state,0,mission_mode,0,,sig ,Len,13,crc16,32989
2024-07-17T19:20:01.817,FD,2A, 0, 0,49, 1, 1,    41,mavlink_rc_channels_t,time_boot_ms,37864,chan1_raw,1494,chan2_raw,1507,chan3_raw,1386,chan4_raw,1501,chan5_raw,1499,chan6_raw,1065,chan7_raw,1933,chan8_raw,1065,chan9_raw,1933,chan10_raw,1932,chan11_raw,1542,chan12_raw,1542,chan13_raw,1514,chan14_raw,1514,chan15_raw,1514,chan16_raw,1514,chan17_raw,998,chan18_raw,998,chancount,18,rssi,45,,sig ,Len,54,crc16,64688
2024-07-17T19:20:01.881,FD, 2, 0, 0,26,FF,BE,    B7,mavlink_autopilot_version_request_t,target_system,1,target_component,1,,sig ,Len,14,crc16,29292
2024-07-17T19:20:01.896,FD,20, 0, 0,4A, 1, 1,    1F,mavlink_attitude_quaternion_t,time_boot_ms,37943,q1,0.7684576,q2,0.005685588,q3,0.003324259,q4,-0.6398669,rollspeed,-7.892848E-05,pitchspeed,-0.0004270345,yawspeed,0.0003047842,repr_offset_q,,,sig ,Len,44,crc16,59046
2024-07-17T19:20:01.896,FD, 1, 0, 0,4B, 1, 1,    2A,mavlink_mission_current_t,seq,0,total,0,mission_state,0,mission_mode,0,,sig ,Len,13,crc16,2573
2024-07-17T19:20:02.007,FD, 9, 0, 0,27,FF,BE,     0,mavlink_heartbeat_t,custom_mode,0,type,6,autopilot,8,base_mode,0,system_status,0,mavlink_version,3,,sig ,Len,21,crc16,53790
2024-07-17T19:20:02.007,FD,1C, 0, 0,4C, 1, 1,    21,mavlink_global_position_int_t,time_boot_ms,38002,lat,295981055,lon,1063014480,alt,282208,relative_alt,290,vx,1,vy,-2,vz,-2,hdg,28043,,sig ,Len,40,crc16,6740
2024-07-17T19:20:02.023,FD,1C, 0, 0,4D, 1, 1,    1E,mavlink_attitude_t,time_boot_ms,38024,roll,0.004496603,pitch,0.01237555,yaw,-1.388592,rollspeed,0.0004929131,pitchspeed,0.002340093,yawspeed,-0.0006808667,,sig ,Len,40,crc16,25085
2024-07-17T19:20:02.023,FD, 1, 0, 0,4E, 1, 1,    2A,mavlink_mission_current_t,seq,0,total,0,mission_state,0,mission_mode,0,,sig ,Len,13,crc16,40300
2024-07-17T19:20:02.101,FD, 9, 0, 0,A5,33,44,    6D,mavlink_radio_status_t,rxerrors,125,fixed,0,rssi,101,remrssi,93,txbuf,100,noise,52,remnoise,22,,sig ,Len,21,crc16,44569
2024-07-17T19:20:02.149,FD,24, 0, 0,50, 1, 1,    53,mavlink_attitude_target_t,time_boot_ms,38128,q,,body_roll_rate,-0.02953255,body_pitch_rate,-0.08172654,body_yaw_rate,1.954389E-05,thrust,0.001,type_mask,0,,sig ,Len,48,crc16,24790
2024-07-17T19:20:02.193,FD,12, 0, 0,51, 1, 1,    4A,mavlink_vfr_hud_t,airspeed,0,groundspeed,0.03163977,alt,282.2256,climb,0.03053477,heading,280,throttle,0,,sig ,Len,30,crc16,33925
2024-07-17T19:20:02.193,FD,1C, 0, 0,52, 1, 1,    1E,mavlink_attitude_t,time_boot_ms,38177,roll,0.004555965,pitch,0.01266761,yaw,-1.388463,rollspeed,-0.0002535599,pitchspeed,0.002947939,yawspeed,-0.0002382807,,sig ,Len,40,crc16,19516
2024-07-17T19:20:02.195,FD,20, 0, 0,53, 1, 1,    1F,mavlink_attitude_quaternion_t,time_boot_ms,38177,q1,0.7685189,q2,0.005802996,q3,0.00341036,q4,-0.6397918,rollspeed,-0.0002535599,pitchspeed,0.002947939,yawspeed,-0.0002382807,repr_offset_q,,,sig ,Len,44,crc16,38576
2024-07-17T19:20:02.195,FD, 1, 0, 0,54, 1, 1,    2A,mavlink_mission_current_t,seq,0,total,0,mission_state,0,mission_mode,0,,sig ,Len,13,crc16,57543
2024-07-17T19:20:02.195,FD,29, 0, 0,55, 1, 1,    93,mavlink_battery_status_t,current_consumed,0,energy_consumed,-1,temperature,32767,voltages,,current_battery,0,id,0,battery_function,1,type,1,battery_remaining,86,time_remaining,0,charge_state,1,voltages_ext,,mode,0,fault_bitmask,0,,sig ,Len,53,crc16,50744
2024-07-17T19:20:02.196,FD,2A, 0, 0,56, 1, 1,    E6,mavlink_estimator_status_t,time_usec,38236429,vel_ratio,0.02238441,pos_horiz_ratio,0.01906835,pos_vert_ratio,0.03048422,mag_ratio,0.008863879,hagl_ratio,0,tas_ratio,0,pos_horiz_accuracy,0.1985874,pos_vert_accuracy,0.1971543,flags,831,,sig ,Len,54,crc16,65234
2024-07-17T19:20:02.225,FD, 1, 0, 0,57, 1, 1,    2A,mavlink_mission_current_t,seq,0,total,0,mission_state,0,mission_mode,0,,sig ,Len,13,crc16,27159
2024-07-17T19:20:02.396,FD,1C, 0, 0,58, 1, 1,    1E,mavlink_attitude_t,time_boot_ms,38335,roll,0.004519889,pitch,0.01281825,yaw,-1.388301,rollspeed,1.848387E-05,pitchspeed,0.004709912,yawspeed,-0.003454021,,sig ,Len,40,crc16,1346
2024-07-17T19:20:02.397,FD,2A, 0, 0,59, 1, 1,    41,mavlink_rc_channels_t,time_boot_ms,38350,chan1_raw,1494,chan2_raw,1507,chan3_raw,1386,chan4_raw,1501,chan5_raw,1499,chan6_raw,1065,chan7_raw,1933,chan8_raw,1065,chan9_raw,1933,chan10_raw,1932,chan11_raw,1542,chan12_raw,1542,chan13_raw,1514,chan14_raw,1514,chan15_raw,1514,chan16_raw,1514,chan17_raw,998,chan18_raw,998,chancount,18,rssi,45,,sig ,Len,54,crc16,29282
2024-07-17T19:20:02.397,FD,20, 0, 0,5A, 1, 1,    1F,mavlink_attitude_quaternion_t,time_boot_ms,38416,q1,0.7685854,q2,0.005832638,q3,0.00344324,q4,-0.6397114,rollspeed,0.001560949,pitchspeed,0.0002530065,yawspeed,-0.001446502,repr_offset_q,,,sig ,Len,44,crc16,39850
2024-07-17T19:20:02.397,FD, 1, 0, 0,5B, 1, 1,    2A,mavlink_mission_current_t,seq,0,total,0,mission_state,0,mission_mode,0,,sig ,Len,13,crc16,20853
2024-07-17T19:20:02.429,FD, 2, 0, 0,28,FF,BE,    B7,mavlink_autopilot_version_request_t,target_system,1,target_component,1,,sig ,Len,14,crc16,43449
2024-07-17T19:20:02.489,FD,1C, 0, 0,5C, 1, 1,    21,mavlink_global_position_int_t,time_boot_ms,38479,lat,295981057,lon,1063014480,alt,282260,relative_alt,343,vx,1,vy,-2,vz,-3,hdg,28046,,sig ,Len,40,crc16,3217
2024-07-17T19:20:02.489,FD,1C, 0, 0,5D, 1, 1,    1E,mavlink_attitude_t,time_boot_ms,38497,roll,0.004583061,pitch,0.01291601,yaw,-1.388203,rollspeed,0.001915412,pitchspeed,0.002562196,yawspeed,-0.001346224,,sig ,Len,40,crc16,35840
2024-07-17T19:20:02.489,FD, 1, 0, 0,5E, 1, 1,    2A,mavlink_mission_current_t,seq,0,total,0,mission_state,0,mission_mode,0,,sig ,Len,13,crc16,50708
2024-07-17T19:20:02.489,FD,2B, 0, 0,5F, 1, 1,    18,mavlink_gps_raw_int_t,time_usec,38541441,lat,295981060,lon,1063014486,alt,282395,eph,62,epv,85,vel,1,cog,28722,fix_type,3,satellites_visible,27,alt_ellipsoid,255640,h_acc,551,v_acc,854,vel_acc,86,hdg_acc,0,yaw,0,,sig ,Len,55,crc16,61320
2024-07-17T19:20:02.596,FD, 1, 0, 0,60, 1, 1,    2A,mavlink_mission_current_t,seq,0,total,0,mission_state,0,mission_mode,0,,sig ,Len,13,crc16,7057
2024-07-17T19:20:02.612,FD,1C, 0, 0,61, 1, 1,    1E,mavlink_attitude_t,time_boot_ms,38655,roll,0.004578145,pitch,0.01308182,yaw,-1.387967,rollspeed,0.001330007,pitchspeed,0.0007338071,yawspeed,-0.002491103,,sig ,Len,40,crc16,50223
2024-07-17T19:20:02.613,FD,20, 0, 0,62, 1, 1,    1F,mavlink_attitude_quaternion_t,time_boot_ms,38655,q1,0.7686765,q2,0.005943132,q3,0.003563907,q4,-0.6396004,rollspeed,0.001330007,pitchspeed,0.0007338071,yawspeed,-0.002491103,repr_offset_q,,,sig ,Len,44,crc16,31915
2024-07-17T19:20:02.613,FD,19, 0, 0,63, 1, 1,  3268,mavlink_open_drone_id_system_t,operator_latitude,295981039,operator_longitude,1063014456,area_ceiling,-1000,area_floor,-1000,operator_altitude_geo,281.9175,timestamp,174914400,area_count,1,area_radius,0,target_system,0,target_component,0,id_or_mac,,operator_location_type,0,classification_type,0,category_eu,0,class_eu,0,,sig ,Len,37,crc16,30174
2024-07-17T19:20:02.704,FD,12, 0, 0,64, 1, 1,    4A,mavlink_vfr_hud_t,airspeed,0,groundspeed,0.02721437,alt,282.2782,climb,0.03852724,heading,280,throttle,0,,sig ,Len,30,crc16,33653
2024-07-17T19:20:02.704,FD, 1, 0, 0,65, 1, 1,    2A,mavlink_mission_current_t,seq,0,total,0,mission_state,0,mission_mode,0,,sig ,Len,13,crc16,36080
2024-07-17T19:20:02.704,FD, 9, 0, 0,66, 1, 1,     0,mavlink_heartbeat_t,custom_mode,67371008,type,2,autopilot,12,base_mode,29,system_status,3,mavlink_version,3,,sig ,Len,21,crc16,57701
2024-07-17T19:20:02.827,FD,1C, 0, 0,67, 1, 1,    1E,mavlink_attitude_t,time_boot_ms,38821,roll,0.004635847,pitch,0.01312985,yaw,-1.387838,rollspeed,0.0005529859,pitchspeed,0.001850527,yawspeed,-0.002824186,,sig ,Len,40,crc16,7904
2024-07-17T19:20:02.858,FD,2A, 0, 0,68, 1, 1,    41,mavlink_rc_channels_t,time_boot_ms,38829,chan1_raw,1494,chan2_raw,1507,chan3_raw,1386,chan4_raw,1501,chan5_raw,1499,chan6_raw,1065,chan7_raw,1933,chan8_raw,1065,chan9_raw,1933,chan10_raw,1932,chan11_raw,1542,chan12_raw,1542,chan13_raw,1514,chan14_raw,1514,chan15_raw,1514,chan16_raw,1514,chan17_raw,998,chan18_raw,998,chancount,18,rssi,45,,sig ,Len,54,crc16,375
2024-07-17T19:20:02.858,FD, 1, 0, 0,69, 1, 1,    2A,mavlink_mission_current_t,seq,0,total,0,mission_state,0,mission_mode,0,,sig ,Len,13,crc16,46994
2024-07-17T19:20:02.859,FD,20, 0, 0,6A, 1, 1,    1F,mavlink_attitude_quaternion_t,time_boot_ms,38903,q1,0.7687378,q2,0.006025357,q3,0.00355058,q4,-0.6395258,rollspeed,-1.777592E-05,pitchspeed,0.002404752,yawspeed,-0.0003244861,repr_offset_q,,,sig ,Len,44,crc16,52056
2024-07-17T19:20:02.859,FD,33, 0, 0,6B, 1, 1,    55,mavlink_position_target_local_ned_t,time_boot_ms,38921,x,NaN,y,NaN,z,NaN,vx,NaN,vy,NaN,vz,NaN,afx,0,afy,0,afz,100,yaw,-1.387736,yaw_rate,0,type_mask,63,coordinate_frame,1,,sig ,Len,63,crc16,50099
2024-07-17T19:20:02.919,FD, 1, 0, 0,6C, 1, 1,    2A,mavlink_mission_current_t,seq,0,total,0,mission_state,0,mission_mode,0,,sig ,Len,13,crc16,8435
2024-07-17T19:20:02.951,FD,1C, 0, 0,6D, 1, 1,    21,mavlink_global_position_int_t,time_boot_ms,38957,lat,295981058,lon,1063014482,alt,282295,relative_alt,378,vx,2,vy,-1,vz,-4,hdg,28048,,sig ,Len,40,crc16,1157
2024-07-17T19:20:02.951,FD,1C, 0, 0,6E, 1, 1,    1E,mavlink_attitude_t,time_boot_ms,38979,roll,0.004813989,pitch,0.01321021,yaw,-1.387712,rollspeed,0.001777689,pitchspeed,0.0003782806,yawspeed,8.668983E-06,,sig ,Len,40,crc16,24026
2024-07-17T19:20:02.967,FD,20, 0, 0,29,FF,BE,    4C,mavlink_command_long_t,param1,0,param2,0,param3,0,param4,0,param5,0,param6,0,param7,0,command,42428,target_system,1,target_component,1,confirmation,0,,sig ,Len,44,crc16,51484
2024-07-17T19:20:03.012,FD, 9, 0, 0,2A,FF,BE,     0,mavlink_heartbeat_t,custom_mode,0,type,6,autopilot,8,base_mode,0,system_status,0,mavlink_version,3,,sig ,Len,21,crc16,9384
2024-07-17T19:20:03.044,FD, 9, 0, 0,A6,33,44,    6D,mavlink_radio_status_t,rxerrors,125,fixed,0,rssi,106,remrssi,90,txbuf,100,noise,65,remnoise,23,,sig ,Len,21,crc16,39376
2024-07-17T19:20:03.059,FD, 1, 0, 0,6F, 1, 1,    2A,mavlink_mission_current_t,seq,0,total,0,mission_state,0,mission_mode,0,,sig ,Len,13,crc16,43555
2024-07-17T19:20:03.091,FD,1C, 0, 0,70, 1, 1,    1E,mavlink_attitude_t,time_boot_ms,39141,roll,0.00491431,pitch,0.01328266,yaw,-1.387724,rollspeed,0.0006803952,pitchspeed,-0.003084581,yawspeed,0.001065522,,sig ,Len,40,crc16,5585
2024-07-17T19:20:03.091,FD,20, 0, 0,71, 1, 1,    1F,mavlink_attitude_quaternion_t,time_boot_ms,39141,q1,0.7687522,q2,0.006136133,q3,0.00353434,q4,-0.6395077,rollspeed,0.0006803952,pitchspeed,-0.003084581,yawspeed,0.001065522,repr_offset_q,,,sig ,Len,44,crc16,2318
2024-07-17T19:20:03.091,FD, A, 0, 0,72, 1, 1,    4D,mavlink_command_ack_t,command,42428,result,3,progress,0,result_param2,0,target_system,255,target_component,190,,sig ,Len,22,crc16,8574
2024-07-17T19:20:03.092,FD, 1, 0, 0,73, 1, 1,    2A,mavlink_mission_current_t,seq,0,total,0,mission_state,0,mission_mode,0,,sig ,Len,13,crc16,51769
2024-07-17T19:20:03.322,FD, 1, 0, 0,74, 1, 1,    2A,mavlink_mission_current_t,seq,0,total,0,mission_state,0,mission_mode,0,,sig ,Len,13,crc16,22071
2024-07-17T19:20:03.322,FD,1C, 0, 0,75, 1, 1,    1E,mavlink_attitude_t,time_boot_ms,39295,roll,0.004878518,pitch,0.01345598,yaw,-1.387545,rollspeed,0.003810728,pitchspeed,0.001911025,yawspeed,0.001717132,,sig ,Len,40,crc16,57058
2024-07-17T19:20:03.322,FD,2A, 0, 0,76, 1, 1,    41,mavlink_rc_channels_t,time_boot_ms,39314,chan1_raw,1494,chan2_raw,1507,chan3_raw,1386,chan4_raw,1501,chan5_raw,1499,chan6_raw,1065,chan7_raw,1933,chan8_raw,1065,chan9_raw,1933,chan10_raw,1932,chan11_raw,1542,chan12_raw,1542,chan13_raw,1514,chan14_raw,1514,chan15_raw,1514,chan16_raw,1514,chan17_raw,998,chan18_raw,998,chancount,18,rssi,45,,sig ,Len,54,crc16,30917
2024-07-17T19:20:03.323,FD,24, 0, 0,77, 1, 1,    53,mavlink_attitude_target_t,time_boot_ms,39335,q,,body_roll_rate,-0.03145599,body_pitch_rate,-0.08817521,body_yaw_rate,9.061376E-05,thrust,0.001,type_mask,0,,sig ,Len,48,crc16,9092
2024-07-17T19:20:03.323,FD,12, 0, 0,78, 1, 1,    4A,mavlink_vfr_hud_t,airspeed,0,groundspeed,0.0253074,alt,282.3229,climb,0.04479675,heading,280,throttle,0,,sig ,Len,30,crc16,56625
2024-07-17T19:20:03.325,FD,20, 0, 0,2B,FF,BE,    4C,mavlink_command_long_t,param1,0,param2,0,param3,0,param4,0,param5,0,param6,0,param7,0,command,42428,target_system,1,target_component,1,confirmation,0,,sig ,Len,44,crc16,23744
2024-07-17T19:20:03.326,FD, 2, 0, 0,2C,FF,BE,    15,mavlink_param_request_list_t,target_system,1,target_component,1,,sig ,Len,14,crc16,30622
2024-07-17T19:20:03.446,FD,20, 0, 0,79, 1, 1,    1F,mavlink_attitude_quaternion_t,time_boot_ms,39380,q1,0.7688511,q2,0.006183821,q3,0.00371549,q4,-0.6393872,rollspeed,-0.001557521,pitchspeed,-0.0005165544,yawspeed,-0.001224922,repr_offset_q,,,sig ,Len,44,crc16,29901
2024-07-17T19:20:03.446,FD, 1, 0, 0,7A, 1, 1,    2A,mavlink_mission_current_t,seq,0,total,0,mission_state,0,mission_mode,0,,sig ,Len,13,crc16,26170
2024-07-17T19:20:03.446,FD,20, 0, 0,7B, 1, 1,    8D,mavlink_altitude_t,time_usec,39412495,altitude_monotonic,394.5089,altitude_amsl,282.3261,altitude_local,0.3711652,altitude_relative,0.02265581,altitude_terrain,NaN,bottom_clearance,NaN,,sig ,Len,44,crc16,47311
2024-07-17T19:20:03.447,FD, 2, 0, 0,7C, 1, 1,    F5,mavlink_extended_sys_state_t,vtol_state,0,landed_state,1,,sig ,Len,14,crc16,18423
2024-07-17T19:20:03.447,FD,1C, 0, 0,7D, 1, 1,    20,mavlink_local_position_ned_t,time_boot_ms,39417,x,0.4574901,y,0.6135483,z,-0.3716111,vx,0.0226803,vy,-0.009875561,vz,-0.04401813,,sig ,Len,40,crc16,23724
2024-07-17T19:20:03.447,FD,3B, 0, 0,7E, 1, 1,  3265,mavlink_open_drone_id_location_t,latitude,295981063,longitude,1063014487,altitude_barometric,394.5089,altitude_geodetic,282.388,height,0.02310181,timestamp,1201.125,direction,2500,speed_horizontal,1,speed_vertical,2,target_system,0,target_component,0,id_or_mac,,status,1,height_reference,0,horizontal_accuracy,12,vertical_accuracy,6,barometer_accuracy,1,speed_accuracy,4,timestamp_accuracy,10,,sig ,Len,71,crc16,4181
2024-07-17T19:20:03.602,FD, E, 0, 0,7F, 1, 1,    1D,mavlink_scaled_pressure_t,time_boot_ms,39377,press_abs,966.74,press_diff,0,temperature,3954,temperature_press_diff,0,,sig ,Len,26,crc16,27735
2024-07-17T19:20:03.602,FD,28, 0, 0,80, 1, 1,     1,mavlink_sys_status_t,onboard_control_sensors_present,35717165,onboard_control_sensors_enabled,35717165,onboard_control_sensors_health,841056319,load,265,voltage_battery,16471,current_battery,0,drop_rate_comm,0,errors_comm,0,errors_count1,0,errors_count2,0,errors_count3,0,errors_count4,0,battery_remaining,87,,sig ,Len,52,crc16,23235
2024-07-17T19:20:03.604,FD,1C, 0, 0,83, 1, 1,    1E,mavlink_attitude_t,time_boot_ms,39466,roll,0.004748201,pitch,0.01366602,yaw,-1.387256,rollspeed,-0.001633905,pitchspeed,0.002137003,yawspeed,-0.003358167,,sig ,Len,40,crc16,24538
2024-07-17T19:20:03.604,FD,1C, 0, 0,84, 1, 1,    21,mavlink_global_position_int_t,time_boot_ms,39461,lat,295981060,lon,1063014483,alt,282328,relative_alt,25,vx,2,vy,0,vz,-4,hdg,28051,,sig ,Len,40,crc16,32223
2024-07-17T19:20:03.605,FD, 1, 0, 0,85, 1, 1,    2A,mavlink_mission_current_t,seq,0,total,0,mission_state,0,mission_mode,0,,sig ,Len,13,crc16,37907
2024-07-17T19:20:03.605,FD, A, 0, 0,86, 1, 1,    4D,mavlink_command_ack_t,command,42428,result,3,progress,0,result_param2,0,target_system,255,target_component,190,,sig ,Len,22,crc16,7405
2024-07-17T19:20:03.605,FD,19, 0, 0,87, 1, 1,    16,mavlink_param_value_t,param_value,-2.835742E-14,param_count,1104,param_index,65535,param_id,_HASH_CHECK,param_type,5,,sig ,Len,37,crc16,18644
2024-07-17T19:20:03.605,FD,19, 0, 0,88, 1, 1,    16,mavlink_param_value_t,param_value,1,param_count,1104,param_index,0,param_id,ASPD_SCALE_1,param_type,9,,sig ,Len,37,crc16,3596
2024-07-17T19:20:03.605,FD,19, 0, 0,89, 1, 1,    16,mavlink_param_value_t,param_value,36.36752,param_count,1104,param_index,1,param_id,BAT1_A_PER_V,param_type,9,,sig ,Len,37,crc16,4009
2024-07-17T19:20:03.605,FD,19, 0, 0,8A, 1, 1,    16,mavlink_param_value_t,param_value,-1,param_count,1104,param_index,2,param_id,BAT1_CAPACITY,param_type,9,,sig ,Len,37,crc16,51621
2024-07-17T19:20:03.788,FD,19, 0, 0,8B, 1, 1,    16,mavlink_param_value_t,param_value,NaN,param_count,1104,param_index,3,param_id,BAT1_I_CHANNEL,param_type,6,,sig ,Len,37,crc16,7326
2024-07-17T19:20:03.789,FD,19, 0, 0,8C, 1, 1,    16,mavlink_param_value_t,param_value,5.605194E-45,param_count,1104,param_index,4,param_id,BAT1_N_CELLS,param_type,6,,sig ,Len,37,crc16,33287
2024-07-17T19:20:03.790,FD,19, 0, 0,8D, 1, 1,    16,mavlink_param_value_t,param_value,0.005,param_count,1104,param_index,5,param_id,BAT1_R_INTERNAL,param_type,9,,sig ,Len,37,crc16,2243
2024-07-17T19:20:03.790,FD,19, 0, 0,8E, 1, 1,    16,mavlink_param_value_t,param_value,0,param_count,1104,param_index,6,param_id,BAT1_SOURCE,param_type,6,,sig ,Len,37,crc16,62571
2024-07-17T19:20:03.791,FD,19, 0, 0,8F, 1, 1,    16,mavlink_param_value_t,param_value,NaN,param_count,1104,param_index,7,param_id,BAT1_V_CHANNEL,param_type,6,,sig ,Len,37,crc16,50071
2024-07-17T19:20:03.791,FD,1C, 0, 0,90, 1, 1,    1E,mavlink_attitude_t,time_boot_ms,39619,roll,0.004647341,pitch,0.0135523,yaw,-1.387109,rollspeed,-0.001043331,pitchspeed,-0.001678747,yawspeed,6.290874E-05,,sig ,Len,40,crc16,5133
2024-07-17T19:20:03.791,FD,20, 0, 0,91, 1, 1,    1F,mavlink_attitude_quaternion_t,time_boot_ms,39619,q1,0.7689489,q2,0.006118587,q3,0.003725235,q4,-0.6392702,rollspeed,-0.001043331,pitchspeed,-0.001678747,yawspeed,6.290874E-05,repr_offset_q,,,sig ,Len,44,crc16,33729
2024-07-17T19:20:03.791,FD, 1, 0, 0,92, 1, 1,    2A,mavlink_mission_current_t,seq,0,total,0,mission_state,0,mission_mode,0,,sig ,Len,13,crc16,21349
2024-07-17T19:20:03.791,FD,19, 0, 0,93, 1, 1,    16,mavlink_param_value_t,param_value,4.2,param_count,1104,param_index,8,param_id,BAT1_V_CHARGED,param_type,9,,sig ,Len,37,crc16,1752
2024-07-17T19:20:03.791,FD,19, 0, 0,94, 1, 1,    16,mavlink_param_value_t,param_value,18.1,param_count,1104,param_index,9,param_id,BAT1_V_DIV,param_type,9,,sig ,Len,37,crc16,28568
2024-07-17T19:20:03.791,FD,19, 0, 0,95, 1, 1,    16,mavlink_param_value_t,param_value,3.6,param_count,1104,param_index,10,param_id,BAT1_V_EMPTY,param_type,9,,sig ,Len,37,crc16,5121
2024-07-17T19:20:03.792,FD,19, 0, 0,96, 1, 1,    16,mavlink_param_value_t,param_value,0.1,param_count,1104,param_index,11,param_id,BAT1_V_LOAD_DROP,param_type,9,,sig ,Len,37,crc16,13761
2024-07-17T19:20:03.792,FD,19, 0, 0,97, 1, 1,    16,mavlink_param_value_t,param_value,36.36752,param_count,1104,param_index,12,param_id,BAT2_A_PER_V,param_type,9,,sig ,Len,37,crc16,28949
2024-07-17T19:20:03.792,FD,19, 0, 0,98, 1, 1,    16,mavlink_param_value_t,param_value,-1,param_count,1104,param_index,13,param_id,BAT2_CAPACITY,param_type,9,,sig ,Len,37,crc16,30494
2024-07-17T19:20:03.792,FD,19, 0, 0,99, 1, 1,    16,mavlink_param_value_t,param_value,NaN,param_count,1104,param_index,14,param_id,BAT2_I_CHANNEL,param_type,6,,sig ,Len,37,crc16,5272
2024-07-17T19:20:03.794,FD,19, 0, 0,9A, 1, 1,    16,mavlink_param_value_t,param_value,0,param_count,1104,param_index,15,param_id,BAT2_N_CELLS,param_type,6,,sig ,Len,37,crc16,41277
2024-07-17T19:20:03.794,FD,19, 0, 0,9B, 1, 1,    16,mavlink_param_value_t,param_value,0.005,param_count,1104,param_index,16,param_id,BAT2_R_INTERNAL,param_type,9,,sig ,Len,37,crc16,33335
2024-07-17T19:20:03.794,FD,19, 0, 0,9C, 1, 1,    16,mavlink_param_value_t,param_value,NaN,param_count,1104,param_index,17,param_id,BAT2_SOURCE,param_type,6,,sig ,Len,37,crc16,15936
2024-07-17T19:20:03.795,FD,19, 0, 0,9D, 1, 1,    16,mavlink_param_value_t,param_value,NaN,param_count,1104,param_index,18,param_id,BAT2_V_CHANNEL,param_type,6,,sig ,Len,37,crc16,40186
2024-07-17T19:20:03.795,FD,19, 0, 0,9E, 1, 1,    16,mavlink_param_value_t,param_value,4.05,param_count,1104,param_index,19,param_id,BAT2_V_CHARGED,param_type,9,,sig ,Len,37,crc16,17630
2024-07-17T19:20:03.795,FD,19, 0, 0,9F, 1, 1,    16,mavlink_param_value_t,param_value,18.1,param_count,1104,param_index,20,param_id,BAT2_V_DIV,param_type,9,,sig ,Len,37,crc16,24629
2024-07-17T19:20:03.795,FD,19, 0, 0,A0, 1, 1,    16,mavlink_param_value_t,param_value,3.6,param_count,1104,param_index,21,param_id,BAT2_V_EMPTY,param_type,9,,sig ,Len,37,crc16,59286
2024-07-17T19:20:03.796,FD,19, 0, 0,A1, 1, 1,    16,mavlink_param_value_t,param_value,0.1,param_count,1104,param_index,22,param_id,BAT2_V_LOAD_DROP,param_type,9,,sig ,Len,37,crc16,40495
2024-07-17T19:20:03.796,FD, 1, 0, 0,A2, 1, 1,    2A,mavlink_mission_current_t,seq,0,total,0,mission_state,0,mission_mode,0,,sig ,Len,13,crc16,48877
2024-07-17T19:20:03.796,FD,19, 0, 0,A3, 1, 1,    16,mavlink_param_value_t,param_value,15,param_count,1104,param_index,23,param_id,BAT_AVRG_CURRENT,param_type,9,,sig ,Len,37,crc16,50960
2024-07-17T19:20:03.884,FD,19, 0, 0,A4, 1, 1,    16,mavlink_param_value_t,param_value,0.07,param_count,1104,param_index,24,param_id,BAT_CRIT_THR,param_type,9,,sig ,Len,37,crc16,13729
2024-07-17T19:20:03.884,FD, 9, 0, 0,A5, 1, 1,     0,mavlink_heartbeat_t,custom_mode,67371008,type,2,autopilot,12,base_mode,29,system_status,3,mavlink_version,3,,sig ,Len,21,crc16,51539
2024-07-17T19:20:03.884,FD,19, 0, 0,A6, 1, 1,    16,mavlink_param_value_t,param_value,0.05,param_count,1104,param_index,25,param_id,BAT_EMERGEN_THR,param_type,9,,sig ,Len,37,crc16,43666
2024-07-17T19:20:03.927,FD,19, 0, 0,A7, 1, 1,    16,mavlink_param_value_t,param_value,0.15,param_count,1104,param_index,26,param_id,BAT_LOW_THR,param_type,9,,sig ,Len,37,crc16,7540
2024-07-17T19:20:03.927,FD,19, 0, 0,A8, 1, 1,    16,mavlink_param_value_t,param_value,4.203895E-45,param_count,1104,param_index,27,param_id,BAT_N_CELLS,param_type,6,,sig ,Len,37,crc16,45229
2024-07-17T19:20:03.927,FD,19, 0, 0,A9, 1, 1,    16,mavlink_param_value_t,param_value,4.05,param_count,1104,param_index,28,param_id,BAT_V_CHARGED,param_type,9,,sig ,Len,37,crc16,26101
2024-07-17T19:20:03.927,FD,1C, 0, 0,AA, 1, 1,    1E,mavlink_attitude_t,time_boot_ms,39777,roll,0.004554473,pitch,0.01369476,yaw,-1.387143,rollspeed,-0.0002207866,pitchspeed,0.002414601,yawspeed,-0.004409103,,sig ,Len,40,crc16,7286
2024-07-17T19:20:03.927,FD,19, 0, 0,AB, 1, 1,    16,mavlink_param_value_t,param_value,3.6,param_count,1104,param_index,29,param_id,BAT_V_EMPTY,param_type,9,,sig ,Len,37,crc16,31016
2024-07-17T19:20:03.929,FD,19, 0, 0,AC, 1, 1,    16,mavlink_param_value_t,param_value,0.3,param_count,1104,param_index,30,param_id,BAT_V_LOAD_DROP,param_type,9,,sig ,Len,37,crc16,57293
2024-07-17T19:20:04.097,FD,38, 0, 0,AD, 1, 1,    F2,mavlink_home_position_t,latitude,295981059,longitude,1063014482,altitude,282303,x,0.4455857,y,0.6036528,z,-0.3485094,q,,approach_x,0,approach_y,0,approach_z,0,time_usec,39047778,,sig ,Len,68,crc16,51113
2024-07-17T19:20:04.097,FD,19, 0, 0,AE, 1, 1,    16,mavlink_param_value_t,param_value,0,param_count,1104,param_index,31,param_id,BAT_V_OFFS_CURR,param_type,9,,sig ,Len,37,crc16,11666
2024-07-17T19:20:04.099,FD,2A, 0, 0,AF, 1, 1,    41,mavlink_rc_channels_t,time_boot_ms,39793,chan1_raw,1494,chan2_raw,1507,chan3_raw,1386,chan4_raw,1502,chan5_raw,1499,chan6_raw,1065,chan7_raw,1933,chan8_raw,1065,chan9_raw,1933,chan10_raw,1932,chan11_raw,1542,chan12_raw,1542,chan13_raw,1514,chan14_raw,1514,chan15_raw,1514,chan16_raw,1514,chan17_raw,998,chan18_raw,998,chancount,18,rssi,45,,sig ,Len,54,crc16,46213
